%time,field.header.seq,field.header.stamp,field.header.frame_id,field.child_frame_id,field.pose.pose.position.x,field.pose.pose.position.y,field.pose.pose.position.z,field.pose.pose.orientation.x,field.pose.pose.orientation.y,field.pose.pose.orientation.z,field.pose.pose.orientation.w,field.pose.covariance0,field.pose.covariance1,field.pose.covariance2,field.pose.covariance3,field.pose.covariance4,field.pose.covariance5,field.pose.covariance6,field.pose.covariance7,field.pose.covariance8,field.pose.covariance9,field.pose.covariance10,field.pose.covariance11,field.pose.covariance12,field.pose.covariance13,field.pose.covariance14,field.pose.covariance15,field.pose.covariance16,field.pose.covariance17,field.pose.covariance18,field.pose.covariance19,field.pose.covariance20,field.pose.covariance21,field.pose.covariance22,field.pose.covariance23,field.pose.covariance24,field.pose.covariance25,field.pose.covariance26,field.pose.covariance27,field.pose.covariance28,field.pose.covariance29,field.pose.covariance30,field.pose.covariance31,field.pose.covariance32,field.pose.covariance33,field.pose.covariance34,field.pose.covariance35,field.twist.twist.linear.x,field.twist.twist.linear.y,field.twist.twist.linear.z,field.twist.twist.angular.x,field.twist.twist.angular.y,field.twist.twist.angular.z,field.twist.covariance0,field.twist.covariance1,field.twist.covariance2,field.twist.covariance3,field.twist.covariance4,field.twist.covariance5,field.twist.covariance6,field.twist.covariance7,field.twist.covariance8,field.twist.covariance9,field.twist.covariance10,field.twist.covariance11,field.twist.covariance12,field.twist.covariance13,field.twist.covariance14,field.twist.covariance15,field.twist.covariance16,field.twist.covariance17,field.twist.covariance18,field.twist.covariance19,field.twist.covariance20,field.twist.covariance21,field.twist.covariance22,field.twist.covariance23,field.twist.covariance24,field.twist.covariance25,field.twist.covariance26,field.twist.covariance27,field.twist.covariance28,field.twist.covariance29,field.twist.covariance30,field.twist.covariance31,field.twist.covariance32,field.twist.covariance33,field.twist.covariance34,field.twist.covariance35
265150000000,5024,264972000000,odom,base_link,-0.000247989723198,-1.43461895812e-07,0.0,0.0,0.0,0.000413298107328,0.999999914592,39.7684762365,-45459.9958653,0.0,0.0,0.0,5.73818612342e-15,-45459.9958653,65911775.4039,0.0,0.0,0.0,-6.94244268804e-12,0.0,0.0,9.99168050653e-07,2.35325997897e-27,3.96473041331e-20,0.0,0.0,0.0,2.35325997897e-27,9.98338848793e-07,-1.95827517307e-35,0.0,0.0,0.0,3.96473041331e-20,1.93584582333e-35,9.98338848793e-07,0.0,5.73818612342e-15,-6.94244268804e-12,0.0,0.0,0.0,0.00144003283192,-1.44631898445e-06,0.0,0.0,0.0,0.0,2.97286008198e-06,0.000506233896278,0.0,0.0,0.0,0.0,0.0,0.0,15661.6651674,0.0,0.0,0.0,0.0,0.0,0.0,9.98753108189e-07,5.6371176113e-36,9.38077289265e-29,0.0,0.0,0.0,5.6371176113e-36,9.95048914303e-07,-1.80289480463e-43,0.0,0.0,0.0,9.38077289265e-29,1.80289480457e-43,9.95048914303e-07,0.0,0.0,0.0,0.0,0.0,0.0,0.000472235789628
265150000000,5025,264992000000,odom,base_link,-0.000248018649482,-1.43485806176e-07,0.0,0.0,0.0,0.000413327893033,0.99999991458,39.792093672,-45489.9426423,0.0,0.0,0.0,4.01706320148e-14,-45489.9426423,65951131.9474,0.0,0.0,0.0,-4.8598134377e-11,0.0,0.0,9.99168052945e-07,2.37288416706e-27,3.99090582312e-20,0.0,0.0,0.0,2.37288416706e-27,9.98338866941e-07,5.88844418645e-36,0.0,0.0,0.0,3.99090582312e-20,-6.11610187614e-36,9.98338866941e-07,0.0,4.01706320148e-14,-4.8598134377e-11,0.0,0.0,0.0,0.00264028062187,-1.44631044652e-06,0.0,0.0,0.0,0.0,2.98190384503e-06,0.000506232849538,0.0,0.0,0.0,0.0,0.0,0.0,15667.2758982,0.0,0.0,0.0,0.0,0.0,0.0,9.98753115886e-07,5.82394764162e-36,9.7475930605e-29,0.0,0.0,0.0,5.82394764162e-36,9.95049383593e-07,5.46860713502e-44,0.0,0.0,0.0,9.7475930605e-29,-5.75735121576e-44,9.95049383593e-07,0.0,0.0,0.0,0.0,0.0,0.0,0.000847592440897
265151000000,5026,265032000000,odom,base_link,-0.000248076501539,-1.43533631673e-07,0.0,0.0,0.0,0.000413388031617,0.999999914555,39.8393700684,-45549.8851896,0.0,0.0,0.0,1.95179773935e-13,-45549.8851896,66029901.4382,0.0,0.0,0.0,-2.36103559693e-10,0.0,0.0,9.99168052945e-07,2.38998728304e-27,3.99085882591e-20,0.0,0.0,0.0,2.38998728304e-27,9.98338866941e-07,1.78450997359e-35,0.0,0.0,0.0,3.99085882591e-20,-1.80743956215e-35,9.98338866941e-07,0.0,1.95179773935e-13,-2.36103559693e-10,0.0,0.0,0.0,0.00504248379848,-1.44629337681e-06,0.0,0.0,0.0,0.0,3.00942350327e-06,0.000506231165251,0.0,0.0,0.0,0.0,0.0,0.0,15678.5013799,0.0,0.0,0.0,0.0,0.0,0.0,9.98753115886e-07,5.865929413e-36,9.74655933703e-29,0.0,0.0,0.0,5.865929413e-36,9.95049383605e-07,1.7302117442e-43,0.0,0.0,0.0,9.74655933703e-29,-1.74945282504e-43,9.95049383605e-07,0.0,0.0,0.0,0.0,0.0,0.0,0.0015169872417
265151000000,5027,265072000000,odom,base_link,-0.000248134352913,-1.43581463666e-07,0.0,0.0,0.0,0.000413446583174,0.999999914531,39.8867020914,-45609.8932821,0.0,0.0,0.0,5.74007830995e-15,-45609.8932821,66108746.1791,0.0,0.0,0.0,-6.94223782777e-12,0.0,0.0,9.99168050653e-07,2.35318796276e-27,3.96461342149e-20,0.0,0.0,0.0,2.35318796276e-27,9.98338848793e-07,-9.55966197853e-36,0.0,0.0,0.0,3.96461342149e-20,9.33538196404e-36,9.98338848793e-07,0.0,5.74007830995e-15,-6.94223782777e-12,0.0,0.0,0.0,0.00144003283192,-1.44627630283e-06,0.0,0.0,0.0,0.0,2.97285666922e-06,0.000506233908272,0.0,0.0,0.0,0.0,0.0,0.0,15689.7322228,0.0,0.0,0.0,0.0,0.0,0.0,9.98753108189e-07,5.63694510005e-36,9.3804960835e-29,0.0,0.0,0.0,5.63694510005e-36,9.95048914303e-07,-8.6381919754e-44,0.0,0.0,0.0,9.3804960835e-29,8.26049758767e-44,9.95048914303e-07,0.0,0.0,0.0,0.0,0.0,0.0,0.000472235789628
265151000000,5028,265092000000,odom,base_link,-0.000248163278344,-1.43605381913e-07,0.0,0.0,0.0,0.000413476368842,0.999999914519,39.9103887628,-45639.9217446,0.0,0.0,0.0,4.01838774453e-14,-45639.9217446,66148196.7851,0.0,0.0,0.0,-4.85967002245e-11,0.0,0.0,9.99168052945e-07,2.37281141804e-27,3.99078804935e-20,0.0,0.0,0.0,2.37281141804e-27,9.98338866941e-07,-6.73493758524e-36,0.0,0.0,0.0,3.99078804935e-20,6.50729359291e-36,9.98338866941e-07,0.0,4.01838774453e-14,-4.85967002245e-11,0.0,0.0,0.0,0.00264028062187,-1.44626776701e-06,0.0,0.0,0.0,0.0,2.98190014162e-06,0.000506232861232,0.0,0.0,0.0,0.0,0.0,0.0,15695.3496551,0.0,0.0,0.0,0.0,0.0,0.0,9.98753115886e-07,5.82376908826e-36,9.7473054038e-29,0.0,0.0,0.0,5.82376908826e-36,9.95049383593e-07,-6.68219610496e-44,0.0,0.0,0.0,9.7473054038e-29,6.50831362062e-44,9.95049383593e-07,0.0,0.0,0.0,0.0,0.0,0.0,0.000847592440896
265152000000,5029,265132000000,odom,base_link,-0.000248221128694,-1.43653223178e-07,0.0,0.0,0.0,0.000413536507337,0.999999914494,39.9578037358,-45700.0277687,0.0,0.0,0.0,1.95244123607e-13,-45700.0277687,66227154.5022,0.0,0.0,0.0,-2.36096592413e-10,0.0,0.0,9.99168052945e-07,2.38991348322e-27,3.99074106092e-20,0.0,0.0,0.0,2.38991348322e-27,9.98338866941e-07,8.14976759102e-36,0.0,0.0,0.0,3.99074106092e-20,-8.37904963032e-36,9.98338866941e-07,0.0,1.95244123607e-13,-2.36096592413e-10,0.0,0.0,0.0,0.00504248379848,-1.44625070136e-06,0.0,0.0,0.0,0.0,3.00941891766e-06,0.000506231176369,0.0,0.0,0.0,0.0,0.0,0.0,15706.5885421,0.0,0.0,0.0,0.0,0.0,0.0,9.98753115886e-07,5.86574828044e-36,9.74627172889e-29,0.0,0.0,0.0,5.86574828044e-36,9.95049383605e-07,7.77879327553e-44,0.0,0.0,0.0,9.74627172889e-29,-7.97120235504e-44,9.95049383605e-07,0.0,0.0,0.0,0.0,0.0,0.0,0.0015169872417
265177000000,5030,265172000000,odom,base_link,-0.000248278978361,-1.43701070388e-07,0.0,0.0,0.0,0.000413592118745,0.999999914471,40.0052742818,-45760.1993403,0.0,0.0,0.0,5.74192956516e-15,-45760.1993403,66306187.6041,0.0,0.0,0.0,-6.94203298302e-12,0.0,0.0,9.99168050653e-07,2.3531159606e-27,3.96449643855e-20,0.0,0.0,0.0,2.3531159606e-27,9.98338848793e-07,5.22953495305e-36,0.0,0.0,0.0,3.96449643855e-20,-5.45380148885e-36,9.98338848793e-07,0.0,5.74192956516e-15,-6.94203298302e-12,0.0,0.0,0.0,0.00144003283192,-1.44623363023e-06,0.0,0.0,0.0,0.0,2.97285326715e-06,0.000506233918841,0.0,0.0,0.0,0.0,0.0,0.0,15717.8327936,0.0,0.0,0.0,0.0,0.0,0.0,9.98753108189e-07,5.63677262243e-36,9.38021929534e-29,0.0,0.0,0.0,5.63677262243e-36,9.95048914303e-07,4.39528782533e-44,0.0,0.0,0.0,9.38021929534e-29,-4.39528759047e-44,9.95048914303e-07,0.0,0.0,0.0,0.0,0.0,0.0,0.000472235789628
265211000000,5031,265192000000,odom,base_link,-0.000248307902938,-1.43724996349e-07,0.0,0.0,0.0,0.000413621904378,0.999999914458,40.0290302019,-45790.3095485,0.0,0.0,0.0,4.01968364869e-14,-45790.3095485,66345732.4412,0.0,0.0,0.0,-4.85952663493e-11,0.0,0.0,9.99168052945e-07,2.37273869261e-27,3.99067030062e-20,0.0,0.0,0.0,2.37273869261e-27,9.98338866941e-07,1.73656565882e-35,0.0,0.0,0.0,3.99067030062e-20,-1.75932868865e-35,9.98338866941e-07,0.0,4.01968364869e-14,-4.85952663493e-11,0.0,0.0,0.0,0.00264028062187,-1.44622509819e-06,0.0,0.0,0.0,0.0,2.98189645048e-06,0.000506232871537,0.0,0.0,0.0,0.0,0.0,0.0,15723.4569313,0.0,0.0,0.0,0.0,0.0,0.0,9.98753115886e-07,5.82359059279e-36,9.74701780826e-29,0.0,0.0,0.0,5.82359059279e-36,9.95049383593e-07,1.7074097014e-43,0.0,0.0,0.0,9.74701780826e-29,-1.72665017517e-43,9.95049383593e-07,0.0,0.0,0.0,0.0,0.0,0.0,0.000847592440896
265244000000,5032,265232000000,odom,base_link,-0.000248365751581,-1.4377285304e-07,0.0,0.0,0.0,0.000413682042782,0.999999914434,40.0765837766,-45850.5791699,0.0,0.0,0.0,1.95307082002e-13,-45850.5791699,66424878.7216,0.0,0.0,0.0,-2.36089626582e-10,0.0,0.0,9.99168052945e-07,2.38983970737e-27,3.99062331756e-20,0.0,0.0,0.0,2.38983970737e-27,9.98338866941e-07,9.08831673203e-37,0.0,0.0,0.0,3.99062331756e-20,-1.1380998698e-36,9.98338866941e-07,0.0,1.95307082002e-13,-2.36089626582e-10,0.0,0.0,0.0,0.00504248379848,-1.44620802732e-06,0.0,0.0,0.0,0.0,3.00941434492e-06,0.000506231186165,0.0,0.0,0.0,0.0,0.0,0.0,15734.7092317,0.0,0.0,0.0,0.0,0.0,0.0,9.98753115886e-07,5.86556720673e-36,9.74598417359e-29,0.0,0.0,0.0,5.86556720673e-36,9.95049383605e-07,1.27269990947e-44,0.0,0.0,0.0,9.74598417359e-29,-1.46510993278e-44,9.95049383605e-07,0.0,0.0,0.0,0.0,0.0,0.0,0.0015169872417
265277000000,5033,265272000000,odom,base_link,-0.000248423599541,-1.43820715951e-07,0.0,0.0,0.0,0.000413739124211,0.99999991441,40.1241931612,-45910.91455,0.0,0.0,0.0,5.74380111599e-15,-45910.91455,66504100.5218,0.0,0.0,0.0,-6.94182814774e-12,0.0,0.0,9.99168050653e-07,2.35304394577e-27,3.96437946096e-20,0.0,0.0,0.0,2.35304394577e-27,9.98338848793e-07,-2.36536440095e-35,0.0,0.0,0.0,3.96437946096e-20,2.3429390955e-35,9.98338848793e-07,0.0,5.74380111599e-15,-6.94182814774e-12,0.0,0.0,0.0,0.00144003283192,-1.44619095737e-06,0.0,0.0,0.0,0.0,2.9728498449e-06,0.000506233928154,0.0,0.0,0.0,0.0,0.0,0.0,15745.9668996,0.0,0.0,0.0,0.0,0.0,0.0,9.98753108189e-07,5.63660011449e-36,9.37994251986e-29,0.0,0.0,0.0,5.63660011449e-36,9.95048914303e-07,-2.23443105667e-43,0.0,0.0,0.0,9.37994251986e-29,2.19666139335e-43,9.95048914303e-07,0.0,0.0,0.0,0.0,0.0,0.0,0.000472235789628
265311000000,5034,265292000000,odom,base_link,-0.000248452523265,-1.4384464971e-07,0.0,0.0,0.0,0.000413768909808,0.999999914398,40.1480185848,-45941.1067383,0.0,0.0,0.0,4.020993755e-14,-45941.1067383,66543739.7588,0.0,0.0,0.0,-4.85938324752e-11,0.0,0.0,9.99168052945e-07,2.37266595077e-27,3.9905525511e-20,0.0,0.0,0.0,2.37266595077e-27,9.98338866941e-07,3.06614362003e-36,0.0,0.0,0.0,3.9905525511e-20,-3.29376022346e-36,9.98338866941e-07,0.0,4.020993755e-14,-4.85938324752e-11,0.0,0.0,0.0,0.00264028062187,-1.4461824218e-06,0.0,0.0,0.0,0.0,2.98189273848e-06,0.000506232880617,0.0,0.0,0.0,0.0,0.0,0.0,15751.5977468,0.0,0.0,0.0,0.0,0.0,0.0,9.98753115886e-07,5.82341205704e-36,9.74673021079e-29,0.0,0.0,0.0,5.82341205704e-36,9.95049383593e-07,2.75339436285e-44,0.0,0.0,0.0,9.74673021079e-29,-2.94580847981e-44,9.95049383593e-07,0.0,0.0,0.0,0.0,0.0,0.0,0.000847592440896
265344000000,5035,265332000000,odom,base_link,-0.000248510370201,-1.43892521996e-07,0.0,0.0,0.0,0.000413829048122,0.999999914373,40.1957112715,-46001.5404263,0.0,0.0,0.0,1.9537072972e-13,-46001.5404263,66623074.9401,0.0,0.0,0.0,-2.3608265996e-10,0.0,0.0,9.99168052945e-07,2.38976590666e-27,3.99050556024e-20,0.0,0.0,0.0,2.38976590666e-27,9.98338866941e-07,-1.01195963466e-35,0.0,0.0,0.0,3.99050556024e-20,9.8903419949e-36,9.98338866941e-07,0.0,1.9537072972e-13,-2.3608265996e-10,0.0,0.0,0.0,0.00504248379848,-1.44616535077e-06,0.0,0.0,0.0,0.0,3.00940975007e-06,0.000506231194798,0.0,0.0,0.0,0.0,0.0,0.0,15762.8634685,0.0,0.0,0.0,0.0,0.0,0.0,9.98753115886e-07,5.86538607197e-36,9.7456965842e-29,0.0,0.0,0.0,5.86538607197e-36,9.95049383605e-07,-9.88609647205e-44,0.0,0.0,0.0,9.7456965842e-29,9.69368638177e-44,9.95049383605e-07,0.0,0.0,0.0,0.0,0.0,0.0,0.0015169872417
265377000000,5036,265372000000,odom,base_link,-0.000248568216454,-1.43940400502e-07,0.0,0.0,0.0,0.000413886129517,0.999999914349,40.2434599084,-46062.0400148,0.0,0.0,0.0,5.74567253414e-15,-46062.0400148,66702485.7764,0.0,0.0,0.0,-6.94162330016e-12,0.0,0.0,9.99168050653e-07,2.35297194602e-27,3.96426247641e-20,0.0,0.0,0.0,2.35297194602e-27,9.98338848793e-07,-7.17642040689e-36,0.0,0.0,0.0,3.96426247641e-20,6.95218083126e-36,9.98338848793e-07,0.0,5.74567253414e-15,-6.94162330016e-12,0.0,0.0,0.0,0.00144003283192,-1.44614828571e-06,0.0,0.0,0.0,0.0,2.97284644769e-06,0.000506233936361,0.0,0.0,0.0,0.0,0.0,0.0,15774.134561,0.0,0.0,0.0,0.0,0.0,0.0,9.98753108189e-07,5.63642764266e-36,9.37966572791e-29,0.0,0.0,0.0,5.63642764266e-36,9.95048914303e-07,-7.6455259326e-44,0.0,0.0,0.0,9.37966572791e-29,7.26783192124e-44,9.95048914303e-07,0.0,0.0,0.0,0.0,0.0,0.0,0.000472235789628
265411000000,5037,265392000000,odom,base_link,-0.000248597139325,-1.43964342059e-07,0.0,0.0,0.0,0.000413915915078,0.999999914337,40.2673550102,-46092.3143601,0.0,0.0,0.0,4.02230377733e-14,-46092.3143601,66742219.582,0.0,0.0,0.0,-4.85923986237e-11,0.0,0.0,9.99168052945e-07,2.37259323106e-27,3.99043480493e-20,0.0,0.0,0.0,2.37259323106e-27,9.98338866941e-07,2.80269523868e-35,0.0,0.0,0.0,3.99043480493e-20,-2.8254555298e-35,9.98338866941e-07,0.0,4.02230377733e-14,-4.85923986237e-11,0.0,0.0,0.0,0.00264028062187,-1.44613975096e-06,0.0,0.0,0.0,0.0,2.9818890508e-06,0.000506232888618,0.0,0.0,0.0,0.0,0.0,0.0,15779.7721217,0.0,0.0,0.0,0.0,0.0,0.0,9.98753115886e-07,5.8232335756e-36,9.7464426215e-29,0.0,0.0,0.0,5.8232335756e-36,9.95049383593e-07,2.75140736959e-43,0.0,0.0,0.0,9.7464426215e-29,-2.7706487764e-43,9.95049383593e-07,0.0,0.0,0.0,0.0,0.0,0.0,0.000847592440896
265444000000,5038,265432000000,odom,base_link,-0.000248654984554,-1.4401222994e-07,0.0,0.0,0.0,0.000413976053303,0.999999914312,40.3151871584,-46152.9124684,0.0,0.0,0.0,1.95434373627e-13,-46152.9124684,66821744.0022,0.0,0.0,0.0,-2.36075693772e-10,0.0,0.0,9.99168052945e-07,2.38969212801e-27,3.99038780713e-20,0.0,0.0,0.0,2.38969212801e-27,9.98338866941e-07,-1.67597378342e-35,0.0,0.0,0.0,3.99038780713e-20,1.65304973253e-35,9.98338866941e-07,0.0,1.95434373627e-13,-2.36075693772e-10,0.0,0.0,0.0,0.00504248379848,-1.44612268238e-06,0.0,0.0,0.0,0.0,3.00940518049e-06,0.000506231202404,0.0,0.0,0.0,0.0,0.0,0.0,15791.0512727,0.0,0.0,0.0,0.0,0.0,0.0,9.98753115886e-07,5.86520499137e-36,9.74540900507e-29,0.0,0.0,0.0,5.86520499137e-36,9.95049383605e-07,-1.58878594184e-43,0.0,0.0,0.0,9.74540900507e-29,1.56954475494e-43,9.95049383605e-07,0.0,0.0,0.0,0.0,0.0,0.0,0.0015169872417
265478000000,5039,265472000000,odom,base_link,-0.0002487128291,-1.4406012404e-07,0.0,0.0,0.0,0.000414033134662,0.999999914288,40.3630753975,-46213.5766193,0.0,0.0,0.0,5.74754385589e-15,-46213.5766193,66901344.2127,0.0,0.0,0.0,-6.94141848435e-12,0.0,0.0,9.99168050653e-07,2.35289994491e-27,3.96414550994e-20,0.0,0.0,0.0,2.35289994491e-27,9.98338848793e-07,2.5143064296e-36,0.0,0.0,0.0,3.96414550994e-20,-2.73853252802e-36,9.98338848793e-07,0.0,5.74754385589e-15,-6.94141848435e-12,0.0,0.0,0.0,0.00144003283192,-1.44610561114e-06,0.0,0.0,0.0,0.0,2.97284303353e-06,0.000506233943591,0.0,0.0,0.0,0.0,0.0,0.0,15802.3357977,0.0,0.0,0.0,0.0,0.0,0.0,9.98753108189e-07,5.63625516756e-36,9.37938897873e-29,0.0,0.0,0.0,5.63625516756e-36,9.95048914303e-07,2.02141095577e-44,0.0,0.0,0.0,9.37938897873e-29,-2.05018488734e-44,9.95048914303e-07,0.0,0.0,0.0,0.0,0.0,0.0,0.000472235789628
265511000000,5040,265492000000,odom,base_link,-0.000248741751117,-1.44084073394e-07,0.0,0.0,0.0,0.000414062920187,0.999999914276,40.3870403524,-46243.9332987,0.0,0.0,0.0,4.0236137094e-14,-46243.9332987,66941172.7562,0.0,0.0,0.0,-4.85909647194e-11,0.0,0.0,9.99168052945e-07,2.37252049317e-27,3.99031705062e-20,0.0,0.0,0.0,2.37252049317e-27,9.98338866941e-07,-1.96633264883e-35,0.0,0.0,0.0,3.99031705062e-20,1.94357372711e-35,9.98338866941e-07,0.0,4.0236137094e-14,-4.85909647194e-11,0.0,0.0,0.0,0.00264028062187,-1.44609707865e-06,0.0,0.0,0.0,0.0,2.98188534666e-06,0.000506232895669,0.0,0.0,0.0,0.0,0.0,0.0,15807.9800759,0.0,0.0,0.0,0.0,0.0,0.0,9.98753115886e-07,5.82305504953e-36,9.74615501234e-29,0.0,0.0,0.0,5.82305504953e-36,9.95049383593e-07,-1.92233691208e-43,0.0,0.0,0.0,9.74615501234e-29,1.90494951266e-43,9.95049383593e-07,0.0,0.0,0.0,0.0,0.0,0.0,0.000847592440897
265544000000,5041,265532000000,odom,base_link,-0.000248799594639,-1.44131976868e-07,0.0,0.0,0.0,0.000414123058321,0.999999914251,40.4350123124,-46304.6961817,0.0,0.0,0.0,1.95498013521e-13,-46304.6961817,67020886.7537,0.0,0.0,0.0,-2.36068727777e-10,0.0,0.0,9.99168052945e-07,2.38961834392e-27,3.9902700657e-20,0.0,0.0,0.0,2.38961834392e-27,9.98338866941e-07,-2.62620818576e-35,0.0,0.0,0.0,3.9902700657e-20,2.60328551903e-35,9.98338866941e-07,0.0,1.95498013521e-13,-2.36068727777e-10,0.0,0.0,0.0,0.00504248379848,-1.44608000991e-06,0.0,0.0,0.0,0.0,3.00940059478e-06,0.000506231209107,0.0,0.0,0.0,0.0,0.0,0.0,15819.2726643,0.0,0.0,0.0,0.0,0.0,0.0,9.98753115886e-07,5.86502389743e-36,9.74512145447e-29,0.0,0.0,0.0,5.86502389743e-36,9.95049383605e-07,-2.54897415808e-43,0.0,0.0,0.0,9.74512145447e-29,2.52793478616e-43,9.95049383605e-07,0.0,0.0,0.0,0.0,0.0,0.0,0.0015169872417
265577000000,5042,265572000000,odom,base_link,-0.000248857437478,-1.44179886561e-07,0.0,0.0,0.0,0.000414180139646,0.999999914227,40.4830405042,-46365.5252495,0.0,0.0,0.0,5.74941504667e-15,-46365.5252495,67100676.6768,0.0,0.0,0.0,-6.9412136585e-12,0.0,0.0,9.99168050653e-07,2.35282794169e-27,3.96402853778e-20,0.0,0.0,0.0,2.35282794169e-27,9.98338848793e-07,-2.19785158158e-35,0.0,0.0,0.0,3.96402853778e-20,2.17543031967e-35,9.98338848793e-07,0.0,5.74941504667e-15,-6.9412136585e-12,0.0,0.0,0.0,0.00144003283192,-1.44606294295e-06,0.0,0.0,0.0,0.0,2.97283962218e-06,0.000506233949963,0.0,0.0,0.0,0.0,0.0,0.0,15830.5706298,0.0,0.0,0.0,0.0,0.0,0.0,9.98753108189e-07,5.63608268743e-36,9.37911221607e-29,0.0,0.0,0.0,5.63608268743e-36,9.95048914303e-07,-2.02497648553e-43,0.0,0.0,0.0,9.37911221607e-29,2.02497642045e-43,9.95048914303e-07,0.0,0.0,0.0,0.0,0.0,0.0,0.000472235789628
265611000000,5043,265592000000,odom,base_link,-0.000248886358642,-1.44203843711e-07,0.0,0.0,0.0,0.000414209925135,0.999999914215,40.5070754877,-46395.9644404,0.0,0.0,0.0,4.02492357006e-14,-46395.9644404,67140600.1275,0.0,0.0,0.0,-4.85895309896e-11,0.0,0.0,9.99168052945e-07,2.37244776819e-27,3.99019931405e-20,0.0,0.0,0.0,2.37244776819e-27,9.98338866941e-07,2.79042212062e-36,0.0,0.0,0.0,3.99019931405e-20,-3.01799764681e-36,9.98338866941e-07,0.0,4.02492357006e-14,-4.85895309896e-11,0.0,0.0,0.0,0.00264028062187,-1.44605440829e-06,0.0,0.0,0.0,0.0,2.98188164587e-06,0.000506232901881,0.0,0.0,0.0,0.0,0.0,0.0,15836.2216294,0.0,0.0,0.0,0.0,0.0,0.0,9.98753115886e-07,5.82287655518e-36,9.7458674465e-29,0.0,0.0,0.0,5.82287655518e-36,9.95049383593e-07,2.53642568516e-44,0.0,0.0,0.0,9.7458674465e-29,-2.72883049648e-44,9.95049383593e-07,0.0,0.0,0.0,0.0,0.0,0.0,0.000847592440896
265642000000,5044,265632000000,odom,base_link,-0.000248944200457,-1.44251762778e-07,0.0,0.0,0.0,0.00041427006318,0.99999991419,40.5551876104,-46456.892453,0.0,0.0,0.0,1.95561649614e-13,-46456.892453,67220504.041,0.0,0.0,0.0,-2.36061762231e-10,0.0,0.0,9.99168052945e-07,2.38954456695e-27,3.99015233035e-20,0.0,0.0,0.0,2.38954456695e-27,9.98338866941e-07,-1.94761541229e-37,0.0,0.0,0.0,3.99015233035e-20,-3.44512860102e-38,9.98338866941e-07,0.0,1.95561649614e-13,-2.36061762231e-10,0.0,0.0,0.0,0.00504248379848,-1.44603733977e-06,0.0,0.0,0.0,0.0,3.00939601408e-06,0.000506231215013,0.0,0.0,0.0,0.0,0.0,0.0,15847.5276631,0.0,0.0,0.0,0.0,0.0,0.0,9.98753115886e-07,5.86484282094e-36,9.74483391872e-29,0.0,0.0,0.0,5.86484282094e-36,9.95049383605e-07,-3.1874099999e-45,0.0,0.0,0.0,9.74483391872e-29,1.07801364755e-45,9.95049383605e-07,0.0,0.0,0.0,0.0,0.0,0.0,0.0015169872417
265675000000,5045,265672000000,odom,base_link,-0.00024900204159,-1.44299688064e-07,0.0,0.0,0.0,0.00041432714447,0.999999914167,40.6033561061,-46517.886793,0.0,0.0,0.0,5.75128612425e-15,-46517.886793,67300484.0158,0.0,0.0,0.0,-6.94100884409e-12,0.0,0.0,9.99168050653e-07,2.35275594731e-27,3.96391157218e-20,0.0,0.0,0.0,2.35275594731e-27,9.98338848793e-07,-8.98628749263e-36,0.0,0.0,0.0,3.96391157218e-20,8.76208835e-36,9.98338848793e-07,0.0,5.75128612425e-15,-6.94100884409e-12,0.0,0.0,0.0,0.00144003283192,-1.44602027472e-06,0.0,0.0,0.0,0.0,2.97283621571e-06,0.000506233955578,0.0,0.0,0.0,0.0,0.0,0.0,15858.8390772,0.0,0.0,0.0,0.0,0.0,0.0,9.98753108189e-07,5.63591022846e-36,9.37883546895e-29,0.0,0.0,0.0,5.63591022846e-36,9.95048914303e-07,-8.61087708643e-44,0.0,0.0,0.0,9.37883546895e-29,8.61087741498e-44,9.95048914303e-07,0.0,0.0,0.0,0.0,0.0,0.0,0.000472235789628
265711000000,5046,265692000000,odom,base_link,-0.0002490309619,-1.4432365301e-07,0.0,0.0,0.0,0.000414356929923,0.999999914154,40.6274612938,-46548.408673,0.0,0.0,0.0,4.02623334567e-14,-46548.408673,67340502.5432,0.0,0.0,0.0,-4.85880972698e-11,0.0,0.0,9.99168052945e-07,2.37237504719e-27,3.99008157732e-20,0.0,0.0,0.0,2.37237504719e-27,9.98338866941e-07,-8.71701470211e-36,0.0,0.0,0.0,3.99008157732e-20,8.48945286612e-36,9.98338866941e-07,0.0,4.02623334567e-14,-4.85880972698e-11,0.0,0.0,0.0,0.00264028062187,-1.44601174161e-06,0.0,0.0,0.0,0.0,2.9818779492e-06,0.000506232907356,0.0,0.0,0.0,0.0,0.0,0.0,15864.4968023,0.0,0.0,0.0,0.0,0.0,0.0,9.98753115886e-07,5.82269807056e-36,9.74557988026e-29,0.0,0.0,0.0,5.82269807056e-36,9.95049383593e-07,-8.26826619242e-44,0.0,0.0,0.0,9.74557988026e-29,8.07613494971e-44,9.95049383593e-07,0.0,0.0,0.0,0.0,0.0,0.0,0.000847592440896
265742000000,5047,265732000000,odom,base_link,-0.000249088802009,-1.44371587668e-07,0.0,0.0,0.0,0.000414417067877,0.999999914129,40.6757139308,-46609.5021707,0.0,0.0,0.0,1.95625281425e-13,-46609.5021707,67420596.7118,0.0,0.0,0.0,-2.36054796552e-10,0.0,0.0,9.99168052945e-07,2.38947078395e-27,3.99003458288e-20,0.0,0.0,0.0,2.38947078395e-27,9.98338866941e-07,-8.71500361062e-36,0.0,0.0,0.0,3.99003458288e-20,8.48580462443e-36,9.98338866941e-07,0.0,1.95625281425e-13,-2.36054796552e-10,0.0,0.0,0.0,0.00504248379848,-1.44599467116e-06,0.0,0.0,0.0,0.0,3.00939143124e-06,0.000506231220217,0.0,0.0,0.0,0.0,0.0,0.0,15875.8162893,0.0,0.0,0.0,0.0,0.0,0.0,9.98753115886e-07,5.86466172968e-36,9.74454635338e-29,0.0,0.0,0.0,5.86466172968e-36,9.95049383605e-07,-8.15913189909e-44,0.0,0.0,0.0,9.74454635338e-29,7.98470620955e-44,9.95049383605e-07,0.0,0.0,0.0,0.0,0.0,0.0,0.0015169872417
265777000000,5048,265772000000,odom,base_link,-0.000249146641435,-1.44419528545e-07,0.0,0.0,0.0,0.000414474149131,0.999999914106,40.7240230823,-46670.6621386,0.0,0.0,0.0,5.75315708229e-15,-46670.6621386,67500767.0776,0.0,0.0,0.0,-6.94080403346e-12,0.0,0.0,9.99168050653e-07,2.35268394331e-27,3.96379460866e-20,0.0,0.0,0.0,2.35268394331e-27,9.98338848793e-07,-2.10446189545e-36,0.0,0.0,0.0,3.96379460866e-20,1.88027622955e-36,9.98338848793e-07,0.0,5.75315708229e-15,-6.94080403346e-12,0.0,0.0,0.0,0.00144003283192,-1.44597760438e-06,0.0,0.0,0.0,0.0,2.97283279627e-06,0.000506233960525,0.0,0.0,0.0,0.0,0.0,0.0,15887.1411599,0.0,0.0,0.0,0.0,0.0,0.0,9.98753108189e-07,5.63573774643e-36,9.37855872677e-29,0.0,0.0,0.0,5.63573774643e-36,9.95048914303e-07,-1.83447066675e-44,0.0,0.0,0.0,9.37855872677e-29,1.42909767919e-44,9.95048914303e-07,0.0,0.0,0.0,0.0,0.0,0.0,0.000472235789628
265811000000,5049,265792000000,odom,base_link,-0.000249175560892,-1.44443501286e-07,0.0,0.0,0.0,0.000414503934549,0.999999914093,40.7481986505,-46701.2668856,0.0,0.0,0.0,4.02754303065e-14,-46701.2668856,67540880.8514,0.0,0.0,0.0,-4.85866634926e-11,0.0,0.0,9.99168052945e-07,2.37230231251e-27,3.98996383472e-20,0.0,0.0,0.0,2.37230231251e-27,9.98338866941e-07,1.23093602679e-35,0.0,0.0,0.0,3.98996383472e-20,-1.25369084125e-35,9.98338866941e-07,0.0,4.02754303065e-14,-4.85866634926e-11,0.0,0.0,0.0,0.00264028062187,-1.44596907139e-06,0.0,0.0,0.0,0.0,2.98187424118e-06,0.000506232912179,0.0,0.0,0.0,0.0,0.0,0.0,15892.8056144,0.0,0.0,0.0,0.0,0.0,0.0,9.98753115886e-07,5.82251955238e-36,9.74529229969e-29,0.0,0.0,0.0,5.82251955238e-36,9.95049383593e-07,1.17470159812e-43,0.0,0.0,0.0,9.74529229969e-29,-1.19394307888e-43,9.95049383593e-07,0.0,0.0,0.0,0.0,0.0,0.0,0.000847592440896
265844000000,5050,265832000000,odom,base_link,-0.000249233399293,-1.44491451536e-07,0.0,0.0,0.0,0.000414564072413,0.999999914068,40.7965921541,-46762.5262244,0.0,0.0,0.0,1.95688909222e-13,-46762.5262244,67621165.6148,0.0,0.0,0.0,-2.36047831063e-10,0.0,0.0,9.99168052945e-07,2.38939700324e-27,3.98991685109e-20,0.0,0.0,0.0,2.38939700324e-27,9.98338866941e-07,-1.88923588453e-35,0.0,0.0,0.0,3.98991685109e-20,1.86631736991e-35,9.98338866941e-07,0.0,1.95688909222e-13,-2.36047831063e-10,0.0,0.0,0.0,0.00504248379848,-1.4459520066e-06,0.0,0.0,0.0,0.0,3.00938684536e-06,0.000506231224803,0.0,0.0,0.0,0.0,0.0,0.0,15904.1385628,0.0,0.0,0.0,0.0,0.0,0.0,9.98753115886e-07,5.86448064403e-36,9.74425882632e-29,0.0,0.0,0.0,5.86448064403e-36,9.95049383605e-07,-1.8478998933e-43,0.0,0.0,0.0,9.74425882632e-29,1.81905239014e-43,9.95049383605e-07,0.0,0.0,0.0,0.0,0.0,0.0,0.0015169872417
265877000000,5051,265872000000,odom,base_link,-0.000249291237013,-1.44539408003e-07,0.0,0.0,0.0,0.000414621153633,0.999999914045,40.845042314,-46823.8521765,0.0,0.0,0.0,5.75502793054e-15,-46823.8521765,67701526.7113,0.0,0.0,0.0,-6.94059923835e-12,0.0,0.0,9.99168050653e-07,2.35261196564e-27,3.96367765409e-20,0.0,0.0,0.0,2.35261196564e-27,9.98338848793e-07,-1.85071339267e-35,0.0,0.0,0.0,3.96367765409e-20,1.8282961735e-35,9.98338848793e-07,0.0,5.75502793054e-15,-6.94059923835e-12,0.0,0.0,0.0,0.00144003283192,-1.44593493937e-06,0.0,0.0,0.0,0.0,2.9728294024e-06,0.000506233964885,0.0,0.0,0.0,0.0,0.0,0.0,15915.4768979,0.0,0.0,0.0,0.0,0.0,0.0,9.98753108189e-07,5.63556532751e-36,9.37828200573e-29,0.0,0.0,0.0,5.63556532751e-36,9.95048914303e-07,-1.82759204806e-43,0.0,0.0,0.0,9.37828200573e-29,1.82759206675e-43,9.95048914303e-07,0.0,0.0,0.0,0.0,0.0,0.0,0.000472235789628
265911000000,5052,265892000000,odom,base_link,-0.000249320155616,-1.44563388539e-07,0.0,0.0,0.0,0.000414650939014,0.999999914032,40.8692884389,-46854.5399689,0.0,0.0,0.0,4.02885264383e-14,-46854.5399689,67741735.9014,0.0,0.0,0.0,-4.85852298851e-11,0.0,0.0,9.99168052945e-07,2.37222960718e-27,3.98984610689e-20,0.0,0.0,0.0,2.37222960718e-27,9.98338866941e-07,3.03511066245e-36,0.0,0.0,0.0,3.98984610689e-20,-3.26264511922e-36,9.98338866941e-07,0.0,4.02885264383e-14,-4.85852298851e-11,0.0,0.0,0.0,0.00264028062187,-1.44592640631e-06,0.0,0.0,0.0,0.0,2.9818705555e-06,0.00050623291643,0.0,0.0,0.0,0.0,0.0,0.0,15921.1480859,0.0,0.0,0.0,0.0,0.0,0.0,9.98753115886e-07,5.82234110625e-36,9.74500475523e-29,0.0,0.0,0.0,5.82234110625e-36,9.95049383593e-07,3.16280488513e-44,0.0,0.0,0.0,9.74500475523e-29,-3.33722556859e-44,9.95049383593e-07,0.0,0.0,0.0,0.0,0.0,0.0,0.000847592440896
265944000000,5053,265932000000,odom,base_link,-0.000249377992311,-1.44611354378e-07,0.0,0.0,0.0,0.000414711076788,0.999999914007,40.9178231621,-46915.9655054,0.0,0.0,0.0,1.95752533298e-13,-46915.9655054,67822211.5995,0.0,0.0,0.0,-2.36040866117e-10,0.0,0.0,9.99168052945e-07,2.38932324132e-27,3.98979912292e-20,0.0,0.0,0.0,2.38932324132e-27,9.98338866941e-07,-2.53460612643e-35,0.0,0.0,0.0,3.98979912292e-20,2.51168899555e-35,9.98338866941e-07,0.0,1.95752533298e-13,-2.36040866117e-10,0.0,0.0,0.0,0.00504248379848,-1.44590934022e-06,0.0,0.0,0.0,0.0,3.00938227451e-06,0.000506231228844,0.0,0.0,0.0,0.0,0.0,0.0,15932.4945036,0.0,0.0,0.0,0.0,0.0,0.0,9.98753115886e-07,5.86429960448e-36,9.74397130811e-29,0.0,0.0,0.0,5.86429960448e-36,9.95049383605e-07,-2.41738039137e-43,0.0,0.0,0.0,9.74397130811e-29,2.39634100596e-43,9.95049383605e-07,0.0,0.0,0.0,0.0,0.0,0.0,0.0015169872417
265977000000,5054,265972000000,odom,base_link,-0.000249435828324,-1.44659326434e-07,0.0,0.0,0.0,0.000414768157973,0.999999913984,40.9664146838,-46977.4577985,0.0,0.0,0.0,5.75689865255e-15,-46977.4577985,67902763.7669,0.0,0.0,0.0,-6.94039443893e-12,0.0,0.0,9.99168050653e-07,2.35253996217e-27,3.96356069698e-20,0.0,0.0,0.0,2.35253996217e-27,9.98338848793e-07,-1.35886414706e-35,0.0,0.0,0.0,3.96356069698e-20,1.33644827521e-35,9.98338848793e-07,0.0,5.75689865255e-15,-6.94039443893e-12,0.0,0.0,0.0,0.00144003283192,-1.44589227389e-06,0.0,0.0,0.0,0.0,2.97282597889e-06,0.000506233968726,0.0,0.0,0.0,0.0,0.0,0.0,15943.8463113,0.0,0.0,0.0,0.0,0.0,0.0,9.98753108189e-07,5.63539284676e-36,9.37800527869e-29,0.0,0.0,0.0,5.63539284676e-36,9.95048914303e-07,-1.28281930336e-43,0.0,0.0,0.0,9.37800527869e-29,1.28575143916e-43,9.95048914303e-07,0.0,0.0,0.0,0.0,0.0,0.0,0.000472235789628
266011000000,5055,265992000000,odom,base_link,-0.000249464746074,-1.44683314765e-07,0.0,0.0,0.0,0.000414797943318,0.999999913971,40.9907315421,-47008.2288147,0.0,0.0,0.0,4.03016216965e-14,-47008.2288147,67943068.5435,0.0,0.0,0.0,-4.85837962596e-11,0.0,0.0,9.99168052945e-07,2.37215687757e-27,3.98972837773e-20,0.0,0.0,0.0,2.37215687757e-27,9.98338866941e-07,-1.14863166095e-35,0.0,0.0,0.0,3.98972837773e-20,1.12587958421e-35,9.98338866941e-07,0.0,4.03016216965e-14,-4.85837962596e-11,0.0,0.0,0.0,0.00264028062187,-1.44588373974e-06,0.0,0.0,0.0,0.0,2.98186684415e-06,0.000506232920176,0.0,0.0,0.0,0.0,0.0,0.0,15949.5242368,0.0,0.0,0.0,0.0,0.0,0.0,9.98753115886e-07,5.8221626005e-36,9.74471720748e-29,0.0,0.0,0.0,5.8221626005e-36,9.95049383593e-07,-1.13079540136e-43,0.0,0.0,0.0,9.74471720748e-29,1.11335342084e-43,9.95049383593e-07,0.0,0.0,0.0,0.0,0.0,0.0,0.000847592440897
266043000000,5056,266032000000,odom,base_link,-0.000249522581063,-1.44731296192e-07,0.0,0.0,0.0,0.000414858081002,0.999999913946,41.0394078388,-47069.8209062,0.0,0.0,0.0,1.95816153153e-13,-47069.8209062,68023735.5167,0.0,0.0,0.0,-2.36033901111e-10,0.0,0.0,9.99168052945e-07,2.38924946001e-27,3.9896813961e-20,0.0,0.0,0.0,2.38924946001e-27,9.98338866941e-07,-1.59258605658e-36,0.0,0.0,0.0,3.9896813961e-20,1.36342858637e-36,9.98338866941e-07,0.0,1.95816153153e-13,-2.36033901111e-10,0.0,0.0,0.0,0.00504248379848,-1.44586667778e-06,0.0,0.0,0.0,0.0,3.00937768278e-06,0.000506231232404,0.0,0.0,0.0,0.0,0.0,0.0,15960.8841318,0.0,0.0,0.0,0.0,0.0,0.0,9.98753115886e-07,5.86411851734e-36,9.74368379319e-29,0.0,0.0,0.0,5.86411851734e-36,9.95049383605e-07,-1.6610146863e-44,0.0,0.0,0.0,9.74368379319e-29,1.45089471946e-44,9.95049383605e-07,0.0,0.0,0.0,0.0,0.0,0.0,0.0015169872417
266072000000,5057,266052000000,odom,base_link,-0.000249551498301,-1.44755289288e-07,0.0,0.0,0.0,0.000414885476594,0.999999913935,41.0637675153,-47100.6421852,0.0,0.0,0.0,5.35427367876e-20,-47100.6421852,68064097.727,0.0,0.0,0.0,-6.45361011392e-17,0.0,0.0,9.95859208929e-07,1.16836060086e-27,9.84499417372e-20,0.0,0.0,0.0,1.16836060086e-27,9.91769512687e-07,4.20091028779e-35,0.0,0.0,0.0,9.84499417372e-20,-4.20646599108e-35,9.91769512687e-07,0.0,5.35427367876e-20,-6.45361011392e-17,0.0,0.0,0.0,0.000240001000017,-1.44585814312e-06,0.0,0.0,0.0,0.0,2.96770502406e-06,0.000506231540057,0.0,0.0,0.0,0.0,0.0,0.0,15966.5661017,0.0,0.0,0.0,0.0,0.0,0.0,9.93808034897e-07,6.94968218401e-37,5.81745577798e-29,0.0,0.0,0.0,6.94968218401e-37,9.75902715561e-07,9.91593764833e-44,0.0,0.0,0.0,5.81745577798e-29,-9.99109084511e-44,9.75902715561e-07,0.0,0.0,0.0,0.0,0.0,0.0,7.97882287303e-05
266111000000,5058,266092000000,odom,base_link,-0.000249609332266,-1.44803279962e-07,0.0,0.0,0.0,0.000414944947461,0.99999991391,41.1125288451,-47162.3343165,0.0,0.0,0.0,4.03147161369e-14,-47162.3343165,68144879.6289,0.0,0.0,0.0,-4.85823626832e-11,0.0,0.0,9.99168052945e-07,2.37208416731e-27,3.98961065299e-20,0.0,0.0,0.0,2.37208416731e-27,9.98338866941e-07,1.24952107212e-35,0.0,0.0,0.0,3.98961065299e-20,-1.27227178011e-35,9.98338866941e-07,0.0,4.03147161369e-14,-4.85823626832e-11,0.0,0.0,0.0,0.00264028062187,-1.44584107891e-06,0.0,0.0,0.0,0.0,2.98186315048e-06,0.000506232923476,0.0,0.0,0.0,0.0,0.0,0.0,15977.9340869,0.0,0.0,0.0,0.0,0.0,0.0,9.98753115886e-07,5.82198414227e-36,9.74442967054e-29,0.0,0.0,0.0,5.82198414227e-36,9.95049383593e-07,1.19315601484e-43,0.0,0.0,0.0,9.74442967054e-29,-1.21239650086e-43,9.95049383593e-07,0.0,0.0,0.0,0.0,0.0,0.0,0.000847592440896
266144000000,5059,266132000000,odom,base_link,-0.000249667165548,-1.44851276977e-07,0.0,0.0,0.0,0.000415005085055,0.999999913885,41.1613470696,-47224.0933208,0.0,0.0,0.0,1.95879769233e-13,-47224.0933208,68225738.218,0.0,0.0,0.0,-2.36026936584e-10,0.0,0.0,9.99168052945e-07,2.38917569724e-27,3.98956367375e-20,0.0,0.0,0.0,2.38917569724e-27,9.98338866941e-07,-9.1178996256e-36,0.0,0.0,0.0,3.98956367375e-20,8.88875599106e-36,9.98338866941e-07,0.0,1.95879769233e-13,-2.36026936584e-10,0.0,0.0,0.0,0.00504248379848,-1.4458240112e-06,0.0,0.0,0.0,0.0,3.00937310745e-06,0.000506231235542,0.0,0.0,0.0,0.0,0.0,0.0,15989.3074673,0.0,0.0,0.0,0.0,0.0,0.0,9.98753115886e-07,5.86393747574e-36,9.74339628921e-29,0.0,0.0,0.0,5.86393747574e-36,9.95049383605e-07,-8.97037172409e-44,0.0,0.0,0.0,9.74339628921e-29,8.77796207458e-44,9.95049383605e-07,0.0,0.0,0.0,0.0,0.0,0.0,0.0015169872417
266177000000,5060,266172000000,odom,base_link,-0.000249724998147,-1.44899280209e-07,0.0,0.0,0.0,0.00041506216617,0.999999913862,41.2102223774,-47285.9193687,0.0,0.0,0.0,5.76063974561e-15,-47285.9193687,68306673.5491,0.0,0.0,0.0,-6.93998486058e-12,0.0,0.0,9.99168050653e-07,2.35239599164e-27,3.96332679456e-20,0.0,0.0,0.0,2.35239599164e-27,9.98338848793e-07,1.22483885801e-35,0.0,0.0,0.0,3.96332679456e-20,-1.24725203511e-35,9.98338848793e-07,0.0,5.76063974561e-15,-6.93998486058e-12,0.0,0.0,0.0,0.00144003283192,-1.44580694755e-06,0.0,0.0,0.0,0.0,2.97281916637e-06,0.000506233975094,0.0,0.0,0.0,0.0,0.0,0.0,16000.686244,0.0,0.0,0.0,0.0,0.0,0.0,9.98753108189e-07,5.63504797249e-36,9.37745185256e-29,0.0,0.0,0.0,5.63504797249e-36,9.95048914303e-07,1.06161440632e-43,0.0,0.0,0.0,9.37745185256e-29,-1.09938376965e-43,9.95048914303e-07,0.0,0.0,0.0,0.0,0.0,0.0,0.000472235789628
266211000000,5061,266192000000,odom,base_link,-0.000249753914191,-1.44923284127e-07,0.0,0.0,0.0,0.000415091951443,0.999999913849,41.2346812344,-47316.8573692,0.0,0.0,0.0,4.03278097642e-14,-47316.8573692,68347170.0099,0.0,0.0,0.0,-4.85809291617e-11,0.0,0.0,9.99168052945e-07,2.37201145393e-27,3.98949293218e-20,0.0,0.0,0.0,2.37201145393e-27,9.98338866941e-07,4.00677903845e-37,0.0,0.0,0.0,3.98949293218e-20,-6.28171296876e-37,9.98338866941e-07,0.0,4.03278097642e-14,-4.85809291617e-11,0.0,0.0,0.0,0.00264028062187,-1.44579841508e-06,0.0,0.0,0.0,0.0,2.98185944934e-06,0.000506232926384,0.0,0.0,0.0,0.0,0.0,0.0,16006.3776564,0.0,0.0,0.0,0.0,0.0,0.0,9.98753115886e-07,5.82180567637e-36,9.74414214319e-29,0.0,0.0,0.0,5.82180567637e-36,9.95049383593e-07,7.06490343986e-45,0.0,0.0,0.0,9.74414214319e-29,-8.98904534547e-45,9.95049383593e-07,0.0,0.0,0.0,0.0,0.0,0.0,0.000847592440896
266244000000,5062,266232000000,odom,base_link,-0.000249811745767,-1.44971296729e-07,0.0,0.0,0.0,0.000415152088947,0.999999913824,41.2836417417,-47378.7836445,0.0,0.0,0.0,1.95943381037e-13,-47378.7836445,68428220.5561,0.0,0.0,0.0,-2.3601997193e-10,0.0,0.0,9.99168052945e-07,2.38910192636e-27,3.98944595062e-20,0.0,0.0,0.0,2.38910192636e-27,9.98338866941e-07,1.64134096336e-35,0.0,0.0,0.0,3.98944595062e-20,-1.66425394312e-35,9.98338866941e-07,0.0,1.95943381037e-13,-2.3601997193e-10,0.0,0.0,0.0,0.00504248379848,-1.44578135189e-06,0.0,0.0,0.0,0.0,3.00936852278e-06,0.000506231238307,0.0,0.0,0.0,0.0,0.0,0.0,16017.7645301,0.0,0.0,0.0,0.0,0.0,0.0,9.98753115886e-07,5.86375641419e-36,9.74310878329e-29,0.0,0.0,0.0,5.86375641419e-36,9.95049383605e-07,1.63549954158e-43,0.0,0.0,0.0,9.74310878329e-29,-1.6547405329e-43,9.95049383605e-07,0.0,0.0,0.0,0.0,0.0,0.0,0.0015169872417
266278000000,5063,266272000000,odom,base_link,-0.00024986957666,-1.45019315547e-07,0.0,0.0,0.0,0.000415209170027,0.999999913801,41.3326594753,-47440.7771074,0.0,0.0,0.0,5.76251011861e-15,-47440.7771074,68509347.9808,0.0,0.0,0.0,-6.93978008399e-12,0.0,0.0,9.99168050653e-07,2.35232400521e-27,3.9632098505e-20,0.0,0.0,0.0,2.35232400521e-27,9.98338848793e-07,-1.27920644868e-35,0.0,0.0,0.0,3.9632098505e-20,1.25679461873e-35,9.98338848793e-07,0.0,5.76251011861e-15,-6.93978008399e-12,0.0,0.0,0.0,0.00144003283192,-1.4457642869e-06,0.0,0.0,0.0,0.0,2.97281575383e-06,0.000506233977722,0.0,0.0,0.0,0.0,0.0,0.0,16029.1568034,0.0,0.0,0.0,0.0,0.0,0.0,9.98753108189e-07,5.63487553257e-36,9.37717515639e-29,0.0,0.0,0.0,5.63487553257e-36,9.95048914303e-07,-1.20862918151e-43,0.0,0.0,0.0,9.37717515639e-29,1.13826966103e-43,9.95048914303e-07,0.0,0.0,0.0,0.0,0.0,0.0,0.000472235789628
266311000000,5064,266292000000,odom,base_link,-0.00024989849185,-1.45043327258e-07,0.0,0.0,0.0,0.000415238955265,0.999999913788,41.3571895982,-47471.7988689,0.0,0.0,0.0,4.03409025811e-14,-47471.7988689,68549940.5397,0.0,0.0,0.0,-4.85794956981e-11,0.0,0.0,9.99168052945e-07,2.3719387415e-27,3.98937521637e-20,0.0,0.0,0.0,2.3719387415e-27,9.98338866941e-07,-1.21778379881e-35,0.0,0.0,0.0,3.98937521637e-20,1.19503582809e-35,9.98338866941e-07,0.0,4.03409025811e-14,-4.85794956981e-11,0.0,0.0,0.0,0.00264028062187,-1.44575575709e-06,0.0,0.0,0.0,0.0,2.98185574803e-06,0.000506232928946,0.0,0.0,0.0,0.0,0.0,0.0,16034.8549652,0.0,0.0,0.0,0.0,0.0,0.0,9.98753115886e-07,5.82162721279e-36,9.74385462807e-29,0.0,0.0,0.0,5.82162721279e-36,9.95049383593e-07,-1.19950726895e-43,0.0,0.0,0.0,9.74385462807e-29,1.18026505728e-43,9.95049383593e-07,0.0,0.0,0.0,0.0,0.0,0.0,0.000847592440896
266344000000,5065,266332000000,odom,base_link,-0.000249956321719,-1.45091355446e-07,0.0,0.0,0.0,0.000415299092679,0.999999913763,41.4062927443,-47533.8927742,0.0,0.0,0.0,1.96006989241e-13,-47533.8927742,68631183.3846,0.0,0.0,0.0,-2.36013007964e-10,0.0,0.0,9.99168052945e-07,2.38902816454e-27,3.989328239e-20,0.0,0.0,0.0,2.38902816454e-27,9.98338866941e-07,7.56010051663e-36,0.0,0.0,0.0,3.989328239e-20,-7.78921647928e-36,9.98338866941e-07,0.0,1.96006989241e-13,-2.36013007964e-10,0.0,0.0,0.0,0.00504248379848,-1.44573868971e-06,0.0,0.0,0.0,0.0,3.00936394049e-06,0.000506231240743,0.0,0.0,0.0,0.0,0.0,0.0,16046.2553402,0.0,0.0,0.0,0.0,0.0,0.0,9.98753115886e-07,5.86357537491e-36,9.74282130551e-29,0.0,0.0,0.0,5.86357537491e-36,9.95049383605e-07,7.08916094371e-44,0.0,0.0,0.0,9.74282130551e-29,-7.28157059323e-44,9.95049383605e-07,0.0,0.0,0.0,0.0,0.0,0.0,0.0015169872417
266377000000,5066,266372000000,odom,base_link,-0.000250014150906,-1.45139389849e-07,0.0,0.0,0.0,0.000415356173723,0.99999991374,41.4554532598,-47596.0540112,0.0,0.0,0.0,5.76438036299e-15,-47596.0540112,68712503.2448,0.0,0.0,0.0,-6.9395753002e-12,0.0,0.0,9.99168050653e-07,2.35225201761e-27,3.96309290238e-20,0.0,0.0,0.0,2.35225201761e-27,9.98338848793e-07,-2.36701918377e-36,0.0,0.0,0.0,3.96309290238e-20,2.14291435575e-36,9.98338848793e-07,0.0,5.76438036299e-15,-6.9395753002e-12,0.0,0.0,0.0,0.00144003283192,-1.44572162428e-06,0.0,0.0,0.0,0.0,2.97281234227e-06,0.000506233980038,0.0,0.0,0.0,0.0,0.0,0.0,16057.661118,0.0,0.0,0.0,0.0,0.0,0.0,9.98753108189e-07,5.63470308984e-36,9.37689845063e-29,0.0,0.0,0.0,5.63470308984e-36,9.95048914303e-07,-2.99482958901e-44,0.0,0.0,0.0,9.37689845063e-29,2.99482883056e-44,9.95048914303e-07,0.0,0.0,0.0,0.0,0.0,0.0,0.000472235789628
266411000000,5067,266392000000,odom,base_link,-0.000250043065243,-1.45163409353e-07,0.0,0.0,0.0,0.000415385958925,0.999999913727,41.4800548267,-47627.1597135,0.0,0.0,0.0,4.03539944858e-14,-47627.1597135,68753192.0727,0.0,0.0,0.0,-4.85780621699e-11,0.0,0.0,9.99168052945e-07,2.37186602672e-27,3.98925749506e-20,0.0,0.0,0.0,2.37186602672e-27,9.98338866941e-07,1.02408983837e-35,0.0,0.0,0.0,3.98925749506e-20,-1.04683644048e-35,9.98338866941e-07,0.0,4.03539944858e-14,-4.85780621699e-11,0.0,0.0,0.0,0.00264028062187,-1.44571309439e-06,0.0,0.0,0.0,0.0,2.98185204703e-06,0.000506232931205,0.0,0.0,0.0,0.0,0.0,0.0,16063.3660334,0.0,0.0,0.0,0.0,0.0,0.0,9.98753115886e-07,5.82144874346e-36,9.74356709949e-29,0.0,0.0,0.0,5.82144874346e-36,9.95049383593e-07,1.0137879962e-43,0.0,0.0,0.0,9.74356709949e-29,-1.03485426536e-43,9.95049383593e-07,0.0,0.0,0.0,0.0,0.0,0.0,0.000847592440896
266441000000,5068,266432000000,odom,base_link,-0.000250100893406,-1.45211453125e-07,0.0,0.0,0.0,0.000415446096249,0.999999913702,41.529300968,-47689.4216082,0.0,0.0,0.0,1.9607059286e-13,-47689.4216082,68834627.5583,0.0,0.0,0.0,-2.360060435e-10,0.0,0.0,9.99168052945e-07,2.38895439782e-27,3.98921052079e-20,0.0,0.0,0.0,2.38895439782e-27,9.98338866941e-07,-1.54934070838e-36,0.0,0.0,0.0,3.98921052079e-20,1.32023858119e-36,9.98338866941e-07,0.0,1.9607059286e-13,-2.360060435e-10,0.0,0.0,0.0,0.00504248379848,-1.44569602881e-06,0.0,0.0,0.0,0.0,3.00935935681e-06,0.00050623124289,0.0,0.0,0.0,0.0,0.0,0.0,16074.7799177,0.0,0.0,0.0,0.0,0.0,0.0,9.98753115886e-07,5.86339432358e-36,9.74253381162e-29,0.0,0.0,0.0,5.86339432358e-36,9.95049383605e-07,-1.18557805077e-44,0.0,0.0,0.0,9.74253381162e-29,8.78842781454e-45,9.95049383605e-07,0.0,0.0,0.0,0.0,0.0,0.0,0.0015169872417
266477000000,5069,266472000000,odom,base_link,-0.000250158720886,-1.45259503113e-07,0.0,0.0,0.0,0.000415503177259,0.999999913679,41.5786046223,-47751.750979,0.0,0.0,0.0,5.76625049729e-15,-47751.750979,68916140.1961,0.0,0.0,0.0,-6.93937053154e-12,0.0,0.0,9.99168050653e-07,2.35218003539e-27,3.96297596284e-20,0.0,0.0,0.0,2.35218003539e-27,9.98338848793e-07,8.09116725694e-36,0.0,0.0,0.0,3.96297596284e-20,-8.31525861483e-36,9.98338848793e-07,0.0,5.76625049729e-15,-6.93937053154e-12,0.0,0.0,0.0,0.00144003283192,-1.44567896691e-06,0.0,0.0,0.0,0.0,2.97280892985e-06,0.000506233982079,0.0,0.0,0.0,0.0,0.0,0.0,16086.199208,0.0,0.0,0.0,0.0,0.0,0.0,9.98753108189e-07,5.63453066e-36,9.37662176518e-29,0.0,0.0,0.0,5.63453066e-36,9.95048914303e-07,7.50597902673e-44,0.0,0.0,0.0,9.37662176518e-29,-7.50597980811e-44,9.95048914303e-07,0.0,0.0,0.0,0.0,0.0,0.0,0.000472235789628
266511000000,5070,266492000000,odom,base_link,-0.00025018763437,-1.45283530409e-07,0.0,0.0,0.0,0.000415532962424,0.999999913666,41.6032778117,-47782.9408019,0.0,0.0,0.0,4.03670856711e-14,-47782.9408019,68956925.4642,0.0,0.0,0.0,-4.85766288091e-11,0.0,0.0,9.99168052945e-07,2.37179332009e-27,3.98913978832e-20,0.0,0.0,0.0,2.37179332009e-27,9.98338866941e-07,3.25135127854e-35,0.0,0.0,0.0,3.98913978832e-20,-3.27409651227e-35,9.98338866941e-07,0.0,4.03670856711e-14,-4.85766288091e-11,0.0,0.0,0.0,0.00264028062187,-1.44567043555e-06,0.0,0.0,0.0,0.0,2.98184834458e-06,0.000506232933194,0.0,0.0,0.0,0.0,0.0,0.0,16091.9108809,0.0,0.0,0.0,0.0,0.0,0.0,9.98753115886e-07,5.82127029414e-36,9.74327960652e-29,0.0,0.0,0.0,5.82127029414e-36,9.95049383593e-07,3.14505396724e-43,0.0,0.0,0.0,9.74327960652e-29,-3.1565136663e-43,9.95049383593e-07,0.0,0.0,0.0,0.0,0.0,0.0,0.000847592440897
266544000000,5071,266532000000,odom,base_link,-0.000250245460826,-1.45331589765e-07,0.0,0.0,0.0,0.000415593099658,0.999999913641,41.6526673055,-47845.3710462,0.0,0.0,0.0,1.96134193058e-13,-47845.3710462,69038553.9329,0.0,0.0,0.0,-2.35999079938e-10,0.0,0.0,9.99168052945e-07,2.38888064157e-27,3.98909282165e-20,0.0,0.0,0.0,2.38888064157e-27,9.98338866941e-07,2.39078589986e-35,0.0,0.0,0.0,3.98909282165e-20,-2.41369472934e-35,9.98338866941e-07,0.0,1.96134193058e-13,-2.35999079938e-10,0.0,0.0,0.0,0.00504248379848,-1.44565337504e-06,0.0,0.0,0.0,0.0,3.00935477291e-06,0.000506231244781,0.0,0.0,0.0,0.0,0.0,0.0,16103.3382825,0.0,0.0,0.0,0.0,0.0,0.0,9.98753115886e-07,5.86321329796e-36,9.7422463643e-29,0.0,0.0,0.0,5.86321329796e-36,9.95049383605e-07,2.30482842205e-43,0.0,0.0,0.0,9.7422463643e-29,-2.32406965494e-43,9.95049383605e-07,0.0,0.0,0.0,0.0,0.0,0.0,0.0015169872417
266578000000,5072,266572000000,odom,base_link,-0.0002503032866,-1.45379655059e-07,0.0,0.0,0.0,0.000415650109944,0.999999913617,41.7021142412,-47907.8687335,0.0,0.0,0.0,7.48434403008e-20,-47907.8687335,69120259.6909,0.0,0.0,0.0,-9.00470294754e-17,0.0,0.0,9.99167591593e-07,7.91172795813e-28,1.33336693199e-20,0.0,0.0,0.0,7.91172795813e-28,9.98337028681e-07,1.81754023837e-36,0.0,0.0,0.0,1.33336693199e-20,-1.84288653797e-36,9.98337028681e-07,0.0,7.48434403008e-20,-9.00470294754e-17,0.0,0.0,0.0,0.0012000010004,-1.44563630885e-06,0.0,0.0,0.0,0.0,2.97111027812e-06,0.000506230792958,0.0,0.0,0.0,0.0,0.0,0.0,16114.7710934,0.0,0.0,0.0,0.0,0.0,0.0,9.98752079858e-07,2.17550173593e-37,3.64822247644e-30,0.0,0.0,0.0,2.17550173593e-37,9.95033098966e-07,2.13436327224e-45,0.0,0.0,0.0,3.64822247644e-30,-2.17473803941e-45,9.95033098966e-07,0.0,0.0,0.0,0.0,0.0,0.0,0.000394737815962
266611000000,5073,266592000000,odom,base_link,-0.000250332199231,-1.45403690142e-07,0.0,0.0,0.0,0.000415679862272,0.999999913605,41.7268592236,-47939.1428543,0.0,0.0,0.0,2.88421979939e-14,-47939.1428543,69161141.5704,0.0,0.0,0.0,-3.46952759571e-11,0.0,0.0,9.99168052945e-07,2.37035951317e-27,3.98901117848e-20,0.0,0.0,0.0,2.37035951317e-27,9.98338866936e-07,-7.88725068673e-36,0.0,0.0,0.0,3.98901117848e-20,7.65994317859e-36,9.98338866936e-07,0.0,2.88421979939e-14,-3.46952759571e-11,0.0,0.0,0.0,0.00240015687235,-1.44562777883e-06,0.0,0.0,0.0,0.0,2.97941075515e-06,0.000506230753635,0.0,0.0,0.0,0.0,0.0,0.0,16120.4895276,0.0,0.0,0.0,0.0,0.0,0.0,9.98753115884e-07,5.81757346383e-36,9.77394692694e-29,0.0,0.0,0.0,5.81757346383e-36,9.95049383206e-07,-7.63538933017e-44,0.0,0.0,0.0,9.77394692694e-29,7.46229882167e-44,9.95049383206e-07,0.0,0.0,0.0,0.0,0.0,0.0,0.000774227552166
266644000000,5074,266632000000,odom,base_link,-0.000250390023981,-1.45451765063e-07,0.0,0.0,0.0,0.00041573989967,0.99999991358,41.7763924101,-48001.7417982,0.0,0.0,0.0,1.73106671345e-13,-48001.7417982,69242963.3651,0.0,0.0,0.0,-2.08216079568e-10,0.0,0.0,9.99168052945e-07,2.38637786774e-27,3.98897510479e-20,0.0,0.0,0.0,2.38637786774e-27,9.98338866941e-07,-6.88851347617e-37,0.0,0.0,0.0,3.98897510479e-20,4.60009816616e-37,9.98338866941e-07,0.0,1.73106671345e-13,-2.08216079568e-10,0.0,0.0,0.0,0.00480203713335,-1.4456107119e-06,0.0,0.0,0.0,0.0,3.00584407076e-06,0.000506230794857,0.0,0.0,0.0,0.0,0.0,0.0,16131.9304546,0.0,0.0,0.0,0.0,0.0,0.0,9.98753115886e-07,5.85707056239e-36,9.74195887376e-29,0.0,0.0,0.0,5.85707056239e-36,9.95049383605e-07,-9.08831813938e-45,0.0,0.0,0.0,9.74195887376e-29,7.16421906441e-45,9.95049383605e-07,0.0,0.0,0.0,0.0,0.0,0.0,0.00145575495392
266678000000,5075,266672000000,odom,base_link,-0.000250447848049,-1.45499845965e-07,0.0,0.0,0.0,0.000415797113158,0.999999913556,41.825983187,-48064.4083315,0.0,0.0,0.0,7.20958923906e-20,-48064.4083315,69324862.5862,0.0,0.0,0.0,-8.67101651747e-17,0.0,0.0,9.99167591593e-07,7.91148589123e-28,1.33332758474e-20,0.0,0.0,0.0,7.91148589123e-28,9.98337028681e-07,-2.76474824342e-36,0.0,0.0,0.0,1.33332758474e-20,2.73940346726e-36,9.98337028681e-07,0.0,7.20958923906e-20,-8.67101651747e-17,0.0,0.0,0.0,0.0012000010004,-1.44559365338e-06,0.0,0.0,0.0,0.0,2.97110691986e-06,0.000506230886347,0.0,0.0,0.0,0.0,0.0,0.0,16143.3767939,0.0,0.0,0.0,0.0,0.0,0.0,9.98752079858e-07,2.17543511075e-37,3.64811481853e-30,0.0,0.0,0.0,2.17543511075e-37,9.95033098966e-07,-3.01077253997e-45,0.0,0.0,0.0,3.64811481853e-30,2.97039728814e-45,9.95033098966e-07,0.0,0.0,0.0,0.0,0.0,0.0,0.000394737815963
266711000000,5076,266692000000,odom,base_link,-0.000250476759826,-1.45523888839e-07,0.0,0.0,0.0,0.000415826865451,0.999999913544,41.8508001498,-48095.7669336,0.0,0.0,0.0,2.88515445294e-14,-48095.7669336,69365841.2488,0.0,0.0,0.0,-3.4694248885e-11,0.0,0.0,9.99168052945e-07,2.37028689333e-27,3.98889347728e-20,0.0,0.0,0.0,2.37028689333e-27,9.98338866936e-07,-2.69163422764e-36,0.0,0.0,0.0,3.98889347728e-20,2.46434039055e-36,9.98338866936e-07,0.0,2.88515445294e-14,-3.4694248885e-11,0.0,0.0,0.0,0.00240015687235,-1.44558512092e-06,0.0,0.0,0.0,0.0,2.97940713171e-06,0.000506230936175,0.0,0.0,0.0,0.0,0.0,0.0,16149.1019935,0.0,0.0,0.0,0.0,0.0,0.0,9.98753115884e-07,5.81739523297e-36,9.77365853333e-29,0.0,0.0,0.0,5.81739523297e-36,9.95049383206e-07,-2.58064902653e-44,0.0,0.0,0.0,9.77365853333e-29,2.40755854865e-44,9.95049383206e-07,0.0,0.0,0.0,0.0,0.0,0.0,0.000774227552167
266759000000,5077,266732000000,odom,base_link,0.00116714776152,1.0378038473e-06,0.0,0.0,0.0,0.000443679379562,0.999999901574,41.9005864627,-48158.6129587,0.0,0.0,0.0,-5.18240229634e-10,-48158.6129587,69447856.7125,0.0,0.0,0.0,6.20262511333e-07,0.0,0.0,9.99168052945e-07,-9.30182561339e-22,-2.37674658229e-16,0.0,0.0,0.0,-9.30182561339e-22,9.98338866941e-07,-2.65739194414e-28,0.0,0.0,0.0,-2.37674658229e-16,-2.65738911132e-28,9.98338866941e-07,0.0,-5.18240229634e-10,6.20262511333e-07,0.0,0.0,0.0,0.00480203713335,0.0431515999785,0.0,0.0,0.0,0.0,0.00182878176045,0.000506231035666,0.0,0.0,0.0,0.0,0.0,0.0,16160.5564538,0.0,0.0,0.0,0.0,0.0,0.0,9.98753115886e-07,-2.28298558642e-30,-5.80446857984e-25,0.0,0.0,0.0,-2.28298558642e-30,9.95049383605e-07,-2.56665818198e-36,0.0,0.0,0.0,-5.80446857984e-25,-2.56665542485e-36,9.95049383605e-07,0.0,0.0,0.0,0.0,0.0,0.0,0.00145575495393
266778000000,5078,266772000000,odom,base_link,0.00675763077829,9.48859818881e-06,0.0,0.0,0.0,0.00165559929271,0.999998629495,41.9907470815,-48250.3527597,0.0,0.0,0.0,-4.6929769691e-15,-48250.3527597,69529949.6544,0.0,0.0,0.0,2.62489185572e-12,0.0,0.0,9.99167591594e-07,-9.49700222925e-19,-8.42571062505e-16,0.0,0.0,0.0,-9.49700222925e-19,9.98337028683e-07,-9.61295477365e-25,0.0,0.0,0.0,-8.42571062505e-16,-9.61295395335e-25,9.98337028683e-07,0.0,-4.6929769691e-15,2.62489185572e-12,0.0,0.0,0.0,0.0012000010004,0.144830473312,0.0,0.0,0.0,0.0,0.0573537648314,0.000506231131801,0.0,0.0,0.0,0.0,0.0,0.0,16172.0163296,0.0,0.0,0.0,0.0,0.0,0.0,9.98752079858e-07,-2.61134002109e-28,-2.30532703396e-25,0.0,0.0,0.0,-2.61134002109e-28,9.95033098966e-07,-1.04533351093e-33,0.0,0.0,0.0,-2.30532703396e-25,-1.04533342239e-33,9.95033098966e-07,0.0,0.0,0.0,0.0,0.0,0.0,0.000394737815962
266811000000,5079,266792000000,odom,base_link,0.0107416076256,2.12153259364e-05,0.0,0.0,0.0,0.00224322155099,0.999997483975,42.086946053,-48332.7326283,0.0,0.0,0.0,-1.15800557166e-08,-48332.7326283,69571025.0608,0.0,0.0,0.0,3.49722670036e-06,0.0,0.0,9.99168052951e-07,-4.61225909066e-18,-4.02088493825e-15,0.0,0.0,0.0,-4.61225909066e-18,9.9833886694e-07,-2.22915251064e-23,0.0,0.0,0.0,-4.02088493825e-15,-2.22915246013e-23,9.9833886694e-07,0.0,-1.15800557166e-08,3.49722670036e-06,0.0,0.0,0.0,0.00240015687235,0.183548891992,0.0,0.0,0.0,0.0,0.0601896821935,0.000506231178246,0.0,0.0,0.0,0.0,0.0,0.0,16177.7482987,0.0,0.0,0.0,0.0,0.0,0.0,9.98753115884e-07,-1.13198627203e-26,-9.85204119215e-24,0.0,0.0,0.0,-1.13198627203e-26,9.95049383206e-07,-2.16008616635e-31,0.0,0.0,0.0,-9.85204119215e-24,-2.16008611735e-31,9.95049383206e-07,0.0,0.0,0.0,0.0,0.0,0.0,0.000774227552166
266844000000,5080,266832000000,odom,base_link,0.0192218336198,6.42715685855e-05,0.0,0.0,0.0,0.00367466310093,0.999993248403,42.3856397483,-48572.9715465,0.0,0.0,0.0,-1.3662209314e-07,-48572.9715465,69653233.4604,0.0,0.0,0.0,2.70660418276e-05,0.0,0.0,9.99168052956e-07,-7.40274729455e-18,-5.63322370778e-15,0.0,0.0,0.0,-7.40274729455e-18,9.98338866946e-07,-5.01252019386e-23,0.0,0.0,0.0,-5.63322370778e-15,-5.01252009437e-23,9.98338866946e-07,0.0,-1.3662209314e-07,2.70660418276e-05,0.0,0.0,0.0,0.00480203713335,0.212538313958,0.0,0.0,0.0,0.0,0.0737510324283,0.000506231267789,0.0,0.0,0.0,0.0,0.0,0.0,16189.2163002,0.0,0.0,0.0,0.0,0.0,0.0,9.98753115886e-07,-1.81690902114e-26,-1.37575611227e-23,0.0,0.0,0.0,-1.81690902114e-26,9.95049383605e-07,-4.84158936847e-31,0.0,0.0,0.0,-1.37575611227e-23,-4.84158927203e-31,9.95049383605e-07,0.0,0.0,0.0,0.0,0.0,0.0,0.00145575495392
266877000000,5081,266872000000,odom,base_link,0.0279152605775,0.000137271288895,0.0,0.0,0.0,0.00503503030569,0.999987324155,42.8587496556,-48935.8853976,0.0,0.0,0.0,-8.67029023671e-14,-48935.8853976,69735517.9314,0.0,0.0,0.0,1.22977555012e-11,0.0,0.0,9.99167591598e-07,-2.39649429104e-18,-2.01557519675e-15,0.0,0.0,0.0,-2.39649429104e-18,9.98337028683e-07,-5.80285242474e-24,0.0,0.0,0.0,-2.01557519675e-15,-5.80285218043e-24,9.98337028683e-07,0.0,-8.67029023671e-14,1.22977555012e-11,0.0,0.0,0.0,0.0012000010004,0.219260103819,0.0,0.0,0.0,0.0,0.0616938229376,0.00050623135296,0.0,0.0,0.0,0.0,0.0,0.0,16200.6897205,0.0,0.0,0.0,0.0,0.0,0.0,9.98752079858e-07,-6.58971467151e-28,-5.51480813831e-25,0.0,0.0,0.0,-6.58971467151e-28,9.95033098966e-07,-6.31231284856e-33,0.0,0.0,0.0,-5.51480813831e-25,-6.31231258279e-33,9.95033098966e-07,0.0,0.0,0.0,0.0,0.0,0.0,0.000394737815963
266911000000,5082,266892000000,odom,base_link,0.0322856734116,0.000181428840338,0.0,0.0,0.0,0.00567257586513,0.999983910812,43.1538295586,-49157.7899605,0.0,0.0,0.0,-5.3299439781e-08,-49157.7899605,69776688.6006,0.0,0.0,0.0,5.29266427571e-06,0.0,0.0,9.99168052958e-07,-7.50867145465e-18,-6.0854294591e-15,0.0,0.0,0.0,-7.50867145465e-18,9.9833886694e-07,-5.49235887308e-23,0.0,0.0,0.0,-6.0854294591e-15,-5.49235895753e-23,9.9833886694e-07,0.0,-5.3299439781e-08,5.29266427571e-06,0.0,0.0,0.0,0.00240015687235,0.220431912635,0.0,0.0,0.0,0.0,0.0658445916668,0.000506231393962,0.0,0.0,0.0,0.0,0.0,0.0,16206.428463,0.0,0.0,0.0,0.0,0.0,0.0,9.98753115884e-07,-1.8428531915e-26,-1.49106285741e-23,0.0,0.0,0.0,-1.8428531915e-26,9.95049383206e-07,-5.3221932994e-31,0.0,0.0,0.0,-1.49106285741e-23,-5.32219338145e-31,9.95049383206e-07,0.0,0.0,0.0,0.0,0.0,0.0,0.000774227552167
266933000000,5083,266932000000,odom,base_link,0.0406290307262,0.000284560645534,0.0,0.0,0.0,0.0072211665468,0.999973927037,43.8659399721,-49684.2546962,0.0,0.0,0.0,-3.72773138608e-07,-49684.2546962,69859086.4393,0.0,0.0,0.0,3.14817574512e-05,0.0,0.0,9.99168052958e-07,-8.56793511795e-18,-5.95652890764e-15,0.0,0.0,0.0,-8.56793511795e-18,9.98338866947e-07,-6.134457592e-23,0.0,0.0,0.0,-5.95652890764e-15,-6.13445759917e-23,9.98338866947e-07,0.0,-3.72773138608e-07,3.14817574512e-05,0.0,0.0,0.0,0.00480203713335,0.21135797032,0.0,0.0,0.0,0.0,0.0794857277726,0.000506231472922,0.0,0.0,0.0,0.0,0.0,0.0,16217.9100138,0.0,0.0,0.0,0.0,0.0,0.0,9.98753115886e-07,-2.10289280915e-26,-1.45471650101e-23,0.0,0.0,0.0,-2.10289280915e-26,9.95049383605e-07,-5.92533761988e-31,0.0,0.0,0.0,-1.45471650101e-23,-5.92533762693e-31,9.95049383605e-07,0.0,0.0,0.0,0.0,0.0,0.0,0.00145575495393
266977000000,5084,266972000000,odom,base_link,0.048888168032,0.000364030494598,0.0,0.0,0.0,0.00590569641045,0.999982561223,44.6398413132,-50248.74212,0.0,0.0,0.0,-1.59632374615e-13,-50248.74212,69941561.1072,0.0,0.0,0.0,1.28588544548e-11,0.0,0.0,9.99167591597e-07,-6.24655443596e-19,-1.94476231718e-15,0.0,0.0,0.0,-6.24655443596e-19,9.98337028681e-07,-1.45941179065e-24,0.0,0.0,0.0,-1.94476231718e-15,-1.4594118069e-24,9.98337028681e-07,0.0,-1.59632374615e-13,1.28588544548e-11,0.0,0.0,0.0,0.0012000010004,0.208854463216,0.0,0.0,0.0,0.0,0.0188338677616,0.000506231547987,0.0,0.0,0.0,0.0,0.0,0.0,16229.3969866,0.0,0.0,0.0,0.0,0.0,0.0,9.98752079858e-07,-1.71779494922e-28,-5.32106116456e-25,0.0,0.0,0.0,-1.71779494922e-28,9.95033098966e-07,-1.58921107229e-33,0.0,0.0,0.0,-5.32106116456e-25,-1.58921108942e-33,9.95033098966e-07,0.0,0.0,0.0,0.0,0.0,0.0,0.000394737815962
267011000000,5085,266992000000,odom,base_link,0.0530096402859,0.000412940234756,0.0,0.0,0.0,0.00612059403578,0.999981268989,44.9953992541,-50507.4746016,0.0,0.0,0.0,-5.95263709595e-08,-50507.4746016,69982828.2794,0.0,0.0,0.0,5.03947755363e-06,0.0,0.0,9.99168052957e-07,-2.18263072484e-18,-5.79442813233e-15,0.0,0.0,0.0,-2.18263072484e-18,9.98338866936e-07,-1.52018137436e-23,0.0,0.0,0.0,-5.79442813233e-15,-1.52018137446e-23,9.98338866936e-07,0.0,-5.95263709595e-08,5.03947755363e-06,0.0,0.0,0.0,0.00240015687235,0.208439192326,0.0,0.0,0.0,0.0,0.0241818315332,0.00050623158412,0.0,0.0,0.0,0.0,0.0,0.0,16235.1425066,0.0,0.0,0.0,0.0,0.0,0.0,9.98753115884e-07,-5.35682998652e-27,-1.4197612069e-23,0.0,0.0,0.0,-5.35682998652e-27,9.95049383206e-07,-1.47308258804e-31,0.0,0.0,0.0,-1.4197612069e-23,-1.47308258818e-31,9.95049383206e-07,0.0,0.0,0.0,0.0,0.0,0.0,0.000774227552167
267043000000,5086,267032000000,odom,base_link,0.0616437617766,0.000522090607706,0.0,0.0,0.0,0.00692842161712,0.999975998199,45.7578057469,-51056.5429207,0.0,0.0,0.0,-3.81976295946e-07,-51056.5429207,70065420.3048,0.0,0.0,0.0,3.05677496526e-05,0.0,0.0,9.99168052958e-07,-3.81892568131e-18,-5.92670097164e-15,0.0,0.0,0.0,-3.81892568131e-18,9.98338866942e-07,-2.72057398731e-23,0.0,0.0,0.0,-5.92670097164e-15,-2.72057396988e-23,9.98338866942e-07,0.0,-3.81976295946e-07,3.05677496526e-05,0.0,0.0,0.0,0.00480203713335,0.218055297183,0.0,0.0,0.0,0.0,0.0434311388132,0.0005062316537,0.0,0.0,0.0,0.0,0.0,0.0,16246.6376147,0.0,0.0,0.0,0.0,0.0,0.0,9.98753115886e-07,-9.37305159413e-27,-1.4474309367e-23,0.0,0.0,0.0,-9.37305159413e-27,9.95049383605e-07,-2.62779913386e-31,0.0,0.0,0.0,-1.4474309367e-23,-2.62779911696e-31,9.95049383605e-07,0.0,0.0,0.0,0.0,0.0,0.0,0.00145575495392
267077000000,5087,267072000000,odom,base_link,0.0703870186923,0.000636290932063,0.0,0.0,0.0,0.00732176311543,0.999973195533,46.6077793308,-51659.5783957,0.0,0.0,0.0,-1.73334806561e-13,-51659.5783957,70148088.8978,0.0,0.0,0.0,1.30141973459e-11,0.0,0.0,9.99167591598e-07,-1.64077914858e-18,-2.03745808574e-15,0.0,0.0,0.0,-1.64077914858e-18,9.98337028682e-07,-4.01610260633e-24,0.0,0.0,0.0,-2.03745808574e-15,-4.01610258878e-24,9.98337028682e-07,0.0,-1.73334806561e-13,1.30141973459e-11,0.0,0.0,0.0,0.0012000010004,0.22065456606,0.0,0.0,0.0,0.0,0.0433869192417,0.000506231719847,0.0,0.0,0.0,0.0,0.0,0.0,16258.1381479,0.0,0.0,0.0,0.0,0.0,0.0,9.98752079858e-07,-4.51168543041e-28,-5.57468375391e-25,0.0,0.0,0.0,-4.51168543041e-28,9.95033098966e-07,-4.36854866087e-33,0.0,0.0,0.0,-5.57468375391e-25,-4.36854864214e-33,9.95033098966e-07,0.0,0.0,0.0,0.0,0.0,0.0,0.000394737815962
267111000000,5088,267092000000,odom,base_link,0.0747713306305,0.000700707011868,0.0,0.0,0.0,0.00778461501045,0.999969699426,47.0612758571,-51977.902564,0.0,0.0,0.0,-7.79467259909e-08,-51977.902564,70189451.9791,0.0,0.0,0.0,5.32252095509e-06,0.0,0.0,9.99168052958e-07,-5.31065090401e-18,-6.12010340344e-15,0.0,0.0,0.0,-5.31065090401e-18,9.98338866938e-07,-3.90670932958e-23,0.0,0.0,0.0,-6.12010340344e-15,-3.90670927996e-23,9.98338866938e-07,0.0,-7.79467259909e-08,5.32252095509e-06,0.0,0.0,0.0,0.00240015687235,0.221175490106,0.0,0.0,0.0,0.0,0.0492247406739,0.000506231751687,0.0,0.0,0.0,0.0,0.0,0.0,16263.8904493,0.0,0.0,0.0,0.0,0.0,0.0,9.98753115884e-07,-1.30339298506e-26,-1.49955873658e-23,0.0,0.0,0.0,-1.30339298506e-26,9.95049383206e-07,-3.78567060605e-31,0.0,0.0,0.0,-1.49955873658e-23,-3.78567055792e-31,9.95049383206e-07,0.0,0.0,0.0,0.0,0.0,0.0,0.000774227552166
267143000000,5089,267132000000,odom,base_link,0.0835542645559,0.00084413366401,0.0,0.0,0.0,0.00907829981084,0.999958791387,48.0709867853,-52677.3298653,0.0,0.0,0.0,-5.12068444851e-07,-52677.3298653,70272234.7588,0.0,0.0,0.0,3.20231689951e-05,0.0,0.0,9.99168052959e-07,-7.05236898379e-18,-6.14202211751e-15,0.0,0.0,0.0,-7.05236898379e-18,9.98338866945e-07,-5.20658472315e-23,0.0,0.0,0.0,-6.14202211751e-15,-5.20658470916e-23,9.98338866945e-07,0.0,-5.12068444851e-07,3.20231689951e-05,0.0,0.0,0.0,0.00480203713335,0.221753218349,0.0,0.0,0.0,0.0,0.0674006786582,0.000506231813,0.0,0.0,0.0,0.0,0.0,0.0,16275.3991227,0.0,0.0,0.0,0.0,0.0,0.0,9.98753115886e-07,-1.73091410213e-26,-1.50001753207e-23,0.0,0.0,0.0,-1.73091410213e-26,9.95049383605e-07,-5.02906788611e-31,0.0,0.0,0.0,-1.50001753207e-23,-5.02906787313e-31,9.95049383605e-07,0.0,0.0,0.0,0.0,0.0,0.0,0.00145575495392
